$GPGGA,155002.000,3732.7239,N,07726.9956,W,1,05,1.7,89.1,M,-33.6,M,,0000*58
$GPGSA,A,3,17,06,28,02,24,,,,,,,,3.2,1.7,2.7*3E
$GPRMC,155002.000,A,3732.7239,N,07726.9956,W,0.00,80.30,141014,,,A*48
$GPGGA,155003.000,3732.7239,N,07726.9956,W,1,05,1.7,89.1,M,-33.6,M,,0000*59
$GPGSA,A,3,17,06,28,02,24,,,,,,,,3.2,1.7,2.7*3E
$GPGSV,3,1,12,17,64,038,42,06,63,250,43,28,44,150,45,02,25,239,38*7B
$GPGSV,3,2,12,24,17,294,22,10,21,176,22,12,25,316,23,51,36,223,37*71
$GPGSV,3,3,12,20,34,062,,01,07,051,,04,06,052,,32,02,033,*7F
$GPRMC,155003.000,A,3732.7239,N,07726.9956,W,0.00,80.30,141014,,,A*49
$GPGGA,155004.000,3732.7239,N,07726.9956,W,1,05,1.7,89.1,M,-33.6,M,,0000*5E
$GPGSA,A,3,17,06,28,02,24,,,,,,,,3.2,1.7,2.7*3E
$GPRMC,155004.000,A,3732.7239,N,07726.9956,W,0.00,80.30,141014,,,A*4E
$GPGGA,155005.000,3732.7239,N,07726.9956,W,1,05,1.7,89.1,M,-33.6,M,,0000*5F
$GPGSA,A,3,17,06,28,02,24,,,,,,,,3.2,1.7,2.7*3E
$GPRMC,155005.000,A,3732.7239,N,07726.9956,W,0.00,80.30,141014,,,A*4F
$GPGGA,155006.000,3732.7239,N,07726.9956,W,1,05,1.7,89.0,M,-33.6,M,,0000*5D
$GPGSA,A,3,17,06,28,02,24,,,,,,,,3.2,1.7,2.7*3E
$GPRMC,155006.000,A,3732.7239,N,07726.9956,W,0.00,80.30,141014,,,A*4C
$GPGGA,155007.000,3732.7239,N,07726.9956,W,1,05,1.7,89.0,M,-33.6,M,,0000*5C
$GPGSA,A,3,17,06,28,02,24,,,,,,,,3.2,1.7,2.7*3E
$GPRMC,155007.000,A,3732.7239,N,07726.9956,W,0.00,80.30,141014,,,A*4D
$GPGGA,155008.000,3732.7239,N,07726.9956,W,1,05,1.7,89.0,M,-33.6,M,,0000*53
$GPGSA,A,3,17,06,28,02,24,,,,,,,,3.2,1.7,2.7*3E
$GPGSV,3,1,12,17,64,038,42,06,63,250,42,28,44,150,45,02,25,239,38*7A
$GPGSV,3,2,12,24,17,294,22,10,21,176,22,12,25,316,24,51,36,223,35*74
$GPGSV,3,3,12,20,34,062,,01,07,051,,04,06,052,,32,02,033,*7F
$GPRMC,155008.000,A,3732.7239,N,07726.9956,W,0.00,80.30,141014,,,A*42
$GPGGA,155009.000,3732.7239,N,07726.9956,W,1,05,1.7,89.0,M,-33.6,M,,0000*52
$GPGSA,A,3,17,06,28,02,24,,,,,,,,3.2,1.7,2.7*3E
$GPRMC,155009.000,A,3732.7239,N,07726.9956,W,0.00,80.30,141014,,,A*43
$GPGGA,155010.000,3732.7239,N,07726.9956,W,1,05,1.7,89.0,M,-33.6,M,,0000*5A
$GPGSA,A,3,17,06,28,02,24,,,,,,,,3.2,1.7,2.7*3E
$GPRMC,155010.000,A,3732.7239,N,07726.9956,W,0.00,80.30,141014,,,A*4B
$GPGGA,155011.000,3732.7239,N,07726.9956,W,1,05,1.7,89.0,M,-33.6,M,,0000*5B
$GPGSA,A,3,17,06,28,02,24,,,,,,,,3.2,1.7,2.7*3E
$GPRMC,155011.000,A,3732.7239,N,07726.9956,W,0.00,80.30,141014,,,A*4A
$GPGGA,155012.000,3732.7239,N,07726.9956,W,1,05,1.7,89.0,M,-33.6,M,,0000*58
$GPGSA,A,3,17,06,28,02,24,,,,,,,,3.2,1.7,2.7*3E
$GPRMC,155012.000,A,3732.7239,N,07726.9956,W,0.00,80.30,141014,,,A*49
$GPGGA,155013.000,3732.7239,N,07726.9956,W,1,05,1.7,89.0,M,-33.6,M,,0000*59
$GPGSA,A,3,17,06,28,02,24,,,,,,,,3.2,1.7,2.7*3E
$GPGSV,3,1,12,17,64,038,41,06,63,250,42,28,44,150,43,02,25,239,38*7F
$GPGSV,3,2,12,24,17,294,23,10,21,176,22,12,25,316,24,51,36,223,35*75
$GPGSV,3,3,12,20,34,062,,01,07,051,,04,06,052,,32,02,033,*7F
$GPRMC,155013.000,A,3732.7239,N,07726.9956,W,0.00,80.30,141014,,,A*48
$GPGGA,155014.000,3732.7239,N,07726.9956,W,1,05,1.7,89.0,M,-33.6,M,,0000*5E
$GPGSA,A,3,17,06,28,02,24,,,,,,,,3.2,1.7,2.7*3E
$GPRMC,155014.000,A,3732.7239,N,07726.9956,W,0.00,80.30,141014,,,A*4F
$GPGGA,155015.000,3732.7239,N,07726.9956,W,1,05,1.7,89.0,M,-33.6,M,,0000*5F
$GPGSA,A,3,17,06,28,02,24,,,,,,,,3.2,1.7,2.7*3E
$GPRMC,155015.000,A,3732.7239,N,07726.9956,W,0.00,80.30,141014,,,A*4E
$GPGGA,155016.000,3732.7239,N,07726.9956,W,1,05,1.7,88.9,M,-33.6,M,,0000*54
$GPGSA,A,3,17,06,28,02,24,,,,,,,,3.2,1.7,2.7*3E
$GPRMC,155016.000,A,3732.7239,N,07726.9956,W,0.00,80.30,141014,,,A*4D
$GPGGA,155017.000,3732.7239,N,07726.9956,W,1,05,1.7,88.9,M,-33.6,M,,0000*55
$GPGSA,A,3,17,06,28,02,24,,,,,,,,3.2,1.7,2.7*3E
$GPRMC,155017.000,A,3732.7239,N,07726.9956,W,0.00,80.30,141014,,,A*4C
$GPGGA,155018.000,3732.7239,N,07726.9956,W,1,05,1.7,88.9,M,-33.6,M,,0000*5A
$GPGSA,A,3,17,06,28,02,24,,,,,,,,3.2,1.7,2.7*3E
$GPGSV,3,1,12,17,64,039,42,06,64,250,43,28,43,151,42,02,25,239,38*7C
$GPGSV,3,2,12,24,17,294,13,10,21,176,22,12,25,316,26,51,36,223,36*77
$GPGSV,3,3,12,20,34,061,,01,07,051,,04,05,052,,32,02,032,*7E
$GPRMC,155018.000,A,3732.7239,N,07726.9956,W,0.00,80.30,141014,,,A*43
$GPGGA,155019.000,3732.7239,N,07726.9956,W,1,04,2.3,88.9,M,-33.6,M,,0000*5D
$GPGSA,A,3,17,06,28,02,,,,,,,,,4.8,2.3,4.3*30
$GPRMC,155019.000,A,3732.7239,N,07726.9956,W,0.00,80.30,141014,,,A*42
